Geo_loc_name,lat,lon
Brazil,-14.2350,-51.9253
Argentina,-38.4161,-63.6167
Mexico,23.6345,-102.5528
Guatemala,15.7835,-90.2308
Belize,17.1899,-88.4977
Panama,8.5380,-80.7821
USA,37.0902,-95.7129
Costa Rica,9.7489,-83.7534
